{"totalResultsCount":273,"geonames":[{"adminCode1":"32","lng":"-2.14111","geonameId":6359550,"toponymName":"Abáigar","countryId":"2510769","fcl":"A","population":101,"countryCode":"ES","name":"Abaigar","fclName":"country, state, region,...","adminCodes1":{"ISO3166_2":"NC"},"countryName":"Espainia","fcodeName":"third-order administrative division","adminName1":"Nafarroa","lat":"42.64887","fcode":"ADM3"},{"adminCode1":"32","lng":"-1.19167","geonameId":6359552,"toponymName":"Abaurregaina/Abaurrea Alta","countryId":"2510769","fcl":"A","population":133,"countryCode":"ES","name":"Abaurregaina/Abaurrea Alta","fclName":"country, state, region,...","adminCodes1":{"ISO3166_2":"NC"},"countryName":"Espainia","fcodeName":"third-order administrative division","adminName1":"Nafarroa","lat":"42.90351","fcode":"ADM3"},{"adminCode1":"32","lng":"-1.23117","geonameId":6359553,"toponymName":"Abaurrepea/Abaurrea Baja","countryId":"2510769","fcl":"A","population":39,"countryCode":"ES","name":"Abaurrepea/Abaurrea Baja","fclName":"country, state, region,...","adminCodes1":{"ISO3166_2":"NC"},"countryName":"Espainia","fcodeName":"third-order administrative division","adminName1":"Nafarroa","lat":"42.9041","fcode":"ADM3"},{"adminCode1":"32","lng":"-1.99285","geonameId":6359554,"toponymName":"Aberin","countryId":"2510769","fcl":"A","population":392,"countryCode":"ES","name":"Aberin","fclName":"country, state, region,...","adminCodes1":{"ISO3166_2":"NC"},"countryName":"Espainia","fcodeName":"third-order administrative division","adminName1":"Nafarroa","lat":"42.62092","fcode":"ADM3"},{"adminCode1":"32","lng":"-1.59313","geonameId":6359555,"toponymName":"Ablitas","countryId":"2510769","fcl":"A","population":2663,"countryCode":"ES","name":"Ablitas","fclName":"country, state, region,...","adminCodes1":{"ISO3166_2":"NC"},"countryName":"Espainia","fcodeName":"third-order administrative division","adminName1":"Nafarroa","lat":"41.96961","fcode":"ADM3"},{"adminCode1":"32","lng":"-2.03905","geonameId":6359551,"toponymName":"Abárzuza/Abartzuza","countryId":"2510769","fcl":"A","population":548,"countryCode":"ES","name":"Abárzuza/Abartzuza","fclName":"country, state, region,...","adminCodes1":{"ISO3166_2":"NC"},"countryName":"Espainia","fcodeName":"third-order administrative division","adminName1":"Nafarroa","lat":"42.75904","fcode":"ADM3"},{"adminCode1":"32","lng":"-1.73417","geonameId":6359556,"toponymName":"Adiós","countryId":"2510769","fcl":"A","population":189,"countryCode":"ES","name":"Adios","fclName":"country, state, region,...","adminCodes1":{"ISO3166_2":"NC"},"countryName":"Espainia","fcodeName":"third-order administrative division","adminName1":"Nafarroa","lat":"42.69779","fcode":"ADM3"},{"adminCode1":"32","lng":"-1.35933","geonameId":6359568,"toponymName":"Aoiz/Agoitz","countryId":"2510769","fcl":"A","population":2640,"countryCode":"ES","name":"Agoitz","fclName":"country, state, region,...","adminCodes1":{"ISO3166_2":"NC"},"countryName":"Espainia","fcodeName":"third-order administrative division","adminName1":"Nafarroa","lat":"42.78439","fcode":"ADM3"},{"adminCode1":"32","lng":"-2.38345","geonameId":6359557,"toponymName":"Aguilar de Codés","countryId":"2510769","fcl":"A","population":102,"countryCode":"ES","name":"Aguilar Kodes","fclName":"country, state, region,...","adminCodes1":{"ISO3166_2":"NC"},"countryName":"Espainia","fcodeName":"third-order administrative division","adminName1":"Nafarroa","lat":"42.61168","fcode":"ADM3"},{"adminCode1":"32","lng":"-1.35363","geonameId":6359558,"toponymName":"Aibar/Oibar","countryId":"2510769","fcl":"A","population":875,"countryCode":"ES","name":"Aibar/Oibar","fclName":"country, state, region,...","adminCodes1":{"ISO3166_2":"NC"},"countryName":"Espainia","fcodeName":"third-order administrative division","adminName1":"Nafarroa","lat":"42.59332","fcode":"ADM3"},{"adminCode1":"32","lng":"-2.04403","geonameId":6359590,"toponymName":"Ayegui / Aiegi","countryId":"2510769","fcl":"A","population":2026,"countryCode":"ES","name":"Aiegi","fclName":"country, state, region,...","adminCodes1":{"ISO3166_2":"NC"},"countryName":"Espainia","fcodeName":"third-order administrative division","adminName1":"Nafarroa","lat":"42.64933","fcode":"ADM3"},{"adminCode1":"32","lng":"-2.07559","geonameId":6359560,"toponymName":"Allín/Allin","countryId":"2510769","fcl":"A","population":854,"countryCode":"ES","name":"Allin","fclName":"country, state, region,...","adminCodes1":{"ISO3166_2":"NC"},"countryName":"Espainia","fcodeName":"third-order administrative division","adminName1":"Nafarroa","lat":"42.70929","fcode":"ADM3"},{"adminCode1":"32","lng":"-1.99911","geonameId":6359561,"toponymName":"Allo","countryId":"2510769","fcl":"A","population":1050,"countryCode":"ES","name":"Allo","fclName":"country, state, region,...","adminCodes1":{"ISO3166_2":"NC"},"countryName":"Espainia","fcodeName":"third-order administrative division","adminName1":"Nafarroa","lat":"42.53678","fcode":"ADM3"},{"adminCode1":"32","lng":"-2.17083","geonameId":6359559,"toponymName":"Altsasu/Alsasua","countryId":"2510769","fcl":"A","population":7691,"countryCode":"ES","name":"Altsasu/Alsasua","fclName":"country, state, region,...","adminCodes1":{"ISO3166_2":"NC"},"countryName":"Espainia","fcodeName":"third-order administrative division","adminName1":"Nafarroa","lat":"42.89458","fcode":"ADM3"},{"adminCode1":"32","lng":"-2.12914","geonameId":6359562,"toponymName":"Améscoa Baja","countryId":"2510769","fcl":"A","population":791,"countryCode":"ES","name":"Ameskoabarrena","fclName":"country, state, region,...","adminCodes1":{"ISO3166_2":"NC"},"countryName":"Espainia","fcodeName":"third-order administrative division","adminName1":"Nafarroa","lat":"42.77112","fcode":"ADM3"},{"adminCode1":"32","lng":"-1.95305","geonameId":6359564,"toponymName":"Andosilla","countryId":"2510769","fcl":"A","population":2950,"countryCode":"ES","name":"Andosilla","fclName":"country, state, region,...","adminCodes1":{"ISO3166_2":"NC"},"countryName":"Espainia","fcodeName":"third-order administrative division","adminName1":"Nafarroa","lat":"42.37996","fcode":"ADM3"},{"adminCode1":"32","lng":"-1.64045","geonameId":6359565,"toponymName":"Ansoáin / Antsoain","countryId":"2510769","fcl":"A","population":10938,"countryCode":"ES","name":"Antsoain","fclName":"country, state, region,...","adminCodes1":{"ISO3166_2":"NC"},"countryName":"Espainia","fcodeName":"third-order administrative division","adminName1":"Nafarroa","lat":"42.83586","fcode":"ADM3"},{"adminCode1":"32","lng":"-2.18755","geonameId":6359563,"toponymName":"Ancín / Antzin","countryId":"2510769","fcl":"A","population":374,"countryCode":"ES","name":"Antzin","fclName":"country, state, region,...","adminCodes1":{"ISO3166_2":"NC"},"countryName":"Espainia","fcodeName":"third-order administrative division","adminName1":"Nafarroa","lat":"42.66868","fcode":"ADM3"},{"adminCode1":"32","lng":"-1.58368","geonameId":6359566,"toponymName":"Anue","countryId":"2510769","fcl":"A","population":455,"countryCode":"ES","name":"Anue","fclName":"country, state, region,...","adminCodes1":{"ISO3166_2":"NC"},"countryName":"Espainia","fcodeName":"third-order administrative division","adminName1":"Nafarroa","lat":"42.97895","fcode":"ADM3"},{"adminCode1":"32","lng":"-2.00255","geonameId":6359569,"toponymName":"Araitz","countryId":"2510769","fcl":"A","population":568,"countryCode":"ES","name":"Araitz","fclName":"country, state, region,...","adminCodes1":{"ISO3166_2":"NC"},"countryName":"Espainia","fcodeName":"third-order administrative division","adminName1":"Nafarroa","lat":"43.03467","fcode":"ADM3"},{"adminCode1":"32","lng":"-1.84797","geonameId":6359574,"toponymName":"Arakil","countryId":"2510769","fcl":"A","population":952,"countryCode":"ES","name":"Arakil","fclName":"country, state, region,...","adminCodes1":{"ISO3166_2":"NC"},"countryName":"Espainia","fcodeName":"third-order administrative division","adminName1":"Nafarroa","lat":"42.91899","fcode":"ADM3"},{"adminCode1":"32","lng":"-2.23039","geonameId":6359570,"toponymName":"Aranarache / Aranaratxe","countryId":"2510769","fcl":"A","population":87,"countryCode":"ES","name":"Aranaratxe","fclName":"country, state, region,...","adminCodes1":{"ISO3166_2":"NC"},"countryName":"Espainia","fcodeName":"third-order administrative division","adminName1":"Nafarroa","lat":"42.76943","fcode":"ADM3"},{"adminCode1":"32","lng":"-1.57726","geonameId":6359572,"toponymName":"Aranguren","countryId":"2510769","fcl":"A","population":8092,"countryCode":"ES","name":"Aranguren","fclName":"country, state, region,...","adminCodes1":{"ISO3166_2":"NC"},"countryName":"Espainia","fcodeName":"third-order administrative division","adminName1":"Nafarroa","lat":"42.77889","fcode":"ADM3"},{"adminCode1":"32","lng":"-1.88845","geonameId":6359573,"toponymName":"Arano","countryId":"2510769","fcl":"A","population":121,"countryCode":"ES","name":"Arano","fclName":"country, state, region,...","adminCodes1":{"ISO3166_2":"NC"},"countryName":"Espainia","fcodeName":"third-order administrative division","adminName1":"Nafarroa","lat":"43.20575","fcode":"ADM3"},{"adminCode1":"32","lng":"-1.73529","geonameId":6359571,"toponymName":"Arantza","countryId":"2510769","fcl":"A","population":645,"countryCode":"ES","name":"Arantza","fclName":"country, state, region,...","adminCodes1":{"ISO3166_2":"NC"},"countryName":"Espainia","fcodeName":"third-order administrative division","adminName1":"Nafarroa","lat":"43.19602","fcode":"ADM3"},{"adminCode1":"32","lng":"-2.35489","geonameId":6359575,"toponymName":"Aras","countryId":"2510769","fcl":"A","population":185,"countryCode":"ES","name":"Aras","fclName":"country, state, region,...","adminCodes1":{"ISO3166_2":"NC"},"countryName":"Espainia","fcodeName":"third-order administrative division","adminName1":"Nafarroa","lat":"42.57003","fcode":"ADM3"},{"adminCode1":"32","lng":"-2.03983","geonameId":6359576,"toponymName":"Arbizu","countryId":"2510769","fcl":"A","population":1093,"countryCode":"ES","name":"Arbizu","fclName":"country, state, region,...","adminCodes1":{"ISO3166_2":"NC"},"countryName":"Espainia","fcodeName":"third-order administrative division","adminName1":"Nafarroa","lat":"42.93182","fcode":"ADM3"},{"adminCode1":"32","lng":"-1.3522","geonameId":6359577,"toponymName":"Arce/Artzi","countryId":"2510769","fcl":"A","population":260,"countryCode":"ES","name":"Arce/Artzi","fclName":"country, state, region,...","adminCodes1":{"ISO3166_2":"NC"},"countryName":"Espainia","fcodeName":"third-order administrative division","adminName1":"Nafarroa","lat":"42.88578","fcode":"ADM3"},{"adminCode1":"32","lng":"-2.18217","geonameId":6359578,"toponymName":"Arcos, Los","countryId":"2510769","fcl":"A","population":1214,"countryCode":"ES","name":"Arcos, Los","fclName":"country, state, region,...","adminCodes1":{"ISO3166_2":"NC"},"countryName":"Espainia","fcodeName":"third-order administrative division","adminName1":"Nafarroa","lat":"42.54714","fcode":"ADM3"},{"adminCode1":"32","lng":"-2.05628","geonameId":6359579,"toponymName":"Arellano","countryId":"2510769","fcl":"A","population":207,"countryCode":"ES","name":"Arellano","fclName":"country, state, region,...","adminCodes1":{"ISO3166_2":"NC"},"countryName":"Espainia","fcodeName":"third-order administrative division","adminName1":"Nafarroa","lat":"42.58482","fcode":"ADM3"},{"adminCode1":"32","lng":"-1.95144","geonameId":6359580,"toponymName":"Areso","countryId":"2510769","fcl":"A","population":276,"countryCode":"ES","name":"Areso","fclName":"country, state, region,...","adminCodes1":{"ISO3166_2":"NC"},"countryName":"Espainia","fcodeName":"third-order administrative division","adminName1":"Nafarroa","lat":"43.0838","fcode":"ADM3"},{"adminCode1":"32","lng":"-1.57975","geonameId":6359581,"toponymName":"Arguedas","countryId":"2510769","fcl":"A","population":2373,"countryCode":"ES","name":"Arguedas","fclName":"country, state, region,...","adminCodes1":{"ISO3166_2":"NC"},"countryName":"Espainia","fcodeName":"third-order administrative division","adminName1":"Nafarroa","lat":"42.18508","fcode":"ADM3"},{"adminCode1":"32","lng":"-1.27481","geonameId":6359582,"toponymName":"Aria","countryId":"2510769","fcl":"A","population":58,"countryCode":"ES","name":"Aria","fclName":"country, state, region,...","adminCodes1":{"ISO3166_2":"NC"},"countryName":"Espainia","fcodeName":"third-order administrative division","adminName1":"Nafarroa","lat":"42.97245","fcode":"ADM3"},{"adminCode1":"32","lng":"-1.2639","geonameId":6359583,"toponymName":"Aribe","countryId":"2510769","fcl":"A","population":50,"countryCode":"ES","name":"Aribe","fclName":"country, state, region,...","adminCodes1":{"ISO3166_2":"NC"},"countryName":"Espainia","fcodeName":"third-order administrative division","adminName1":"Nafarroa","lat":"42.94542","fcode":"ADM3"},{"adminCode1":"32","lng":"-2.28672","geonameId":6359584,"toponymName":"Armañanzas","countryId":"2510769","fcl":"A","population":60,"countryCode":"ES","name":"Armañantzas","fclName":"country, state, region,...","adminCodes1":{"ISO3166_2":"NC"},"countryName":"Espainia","fcodeName":"third-order administrative division","adminName1":"Nafarroa","lat":"42.54161","fcode":"ADM3"},{"adminCode1":"32","lng":"-2.10567","geonameId":6359585,"toponymName":"Arróniz","countryId":"2510769","fcl":"A","population":1111,"countryCode":"ES","name":"Arroitz","fclName":"country, state, region,...","adminCodes1":{"ISO3166_2":"NC"},"countryName":"Espainia","fcodeName":"third-order administrative division","adminName1":"Nafarroa","lat":"42.55856","fcode":"ADM3"},{"adminCode1":"32","lng":"-2.00981","geonameId":6359586,"toponymName":"Arruazu","countryId":"2510769","fcl":"A","population":114,"countryCode":"ES","name":"Arruazu","fclName":"country, state, region,...","adminCodes1":{"ISO3166_2":"NC"},"countryName":"Espainia","fcodeName":"third-order administrative division","adminName1":"Nafarroa","lat":"42.93399","fcode":"ADM3"},{"adminCode1":"32","lng":"-1.75114","geonameId":6359587,"toponymName":"Artajona","countryId":"2510769","fcl":"A","population":1731,"countryCode":"ES","name":"Artaxoa","fclName":"country, state, region,...","adminCodes1":{"ISO3166_2":"NC"},"countryName":"Espainia","fcodeName":"third-order administrative division","adminName1":"Nafarroa","lat":"42.58863","fcode":"ADM3"},{"adminCode1":"32","lng":"-1.83655","geonameId":6359588,"toponymName":"Artazu","countryId":"2510769","fcl":"A","population":121,"countryCode":"ES","name":"Artazu","fclName":"country, state, region,...","adminCodes1":{"ISO3166_2":"NC"},"countryName":"Espainia","fcodeName":"third-order administrative division","adminName1":"Nafarroa","lat":"42.68756","fcode":"ADM3"},{"adminCode1":"32","lng":"-1.70777","geonameId":6359589,"toponymName":"Atez","countryId":"2510769","fcl":"A","population":243,"countryCode":"ES","name":"Atetz","fclName":"country, state, region,...","adminCodes1":{"ISO3166_2":"NC"},"countryName":"Espainia","fcodeName":"third-order administrative division","adminName1":"Nafarroa","lat":"42.94208","fcode":"ADM3"},{"adminCode1":"32","lng":"-1.33701","geonameId":6359606,"toponymName":"Auritz/Burguete","countryId":"2510769","fcl":"A","population":272,"countryCode":"ES","name":"Auritz/Burguete","fclName":"country, state, region,...","adminCodes1":{"ISO3166_2":"NC"},"countryName":"Espainia","fcodeName":"third-order administrative division","adminName1":"Nafarroa","lat":"42.98604","fcode":"ADM3"},{"adminCode1":"32","lng":"-1.87831","geonameId":6359591,"toponymName":"Azagra","countryId":"2510769","fcl":"A","population":3868,"countryCode":"ES","name":"Azagra","fclName":"country, state, region,...","adminCodes1":{"ISO3166_2":"NC"},"countryName":"Espainia","fcodeName":"third-order administrative division","adminName1":"Nafarroa","lat":"42.29409","fcode":"ADM3"},{"adminCode1":"32","lng":"-2.35012","geonameId":6359592,"toponymName":"Azuelo","countryId":"2510769","fcl":"A","population":38,"countryCode":"ES","name":"Azuelo","fclName":"country, state, region,...","adminCodes1":{"ISO3166_2":"NC"},"countryName":"Espainia","fcodeName":"third-order administrative division","adminName1":"Nafarroa","lat":"42.60862","fcode":"ADM3"},{"adminCode1":"32","lng":"-1.7282","geonameId":6359567,"toponymName":"Añorbe","countryId":"2510769","fcl":"A","population":586,"countryCode":"ES","name":"Añorbe","fclName":"country, state, region,...","adminCodes1":{"ISO3166_2":"NC"},"countryName":"Espainia","fcodeName":"third-order administrative division","adminName1":"Nafarroa","lat":"42.63541","fcode":"ADM3"},{"adminCode1":"32","lng":"-2.10719","geonameId":6359593,"toponymName":"Bakaiku","countryId":"2510769","fcl":"A","population":333,"countryCode":"ES","name":"Bakaiku","fclName":"country, state, region,...","adminCodes1":{"ISO3166_2":"NC"},"countryName":"Espainia","fcodeName":"third-order administrative division","adminName1":"Nafarroa","lat":"42.91086","fcode":"ADM3"},{"adminCode1":"32","lng":"-2.1268","geonameId":6359595,"toponymName":"Barbarin","countryId":"2510769","fcl":"A","population":65,"countryCode":"ES","name":"Barbarin","fclName":"country, state, region,...","adminCodes1":{"ISO3166_2":"NC"},"countryName":"Espainia","fcodeName":"third-order administrative division","adminName1":"Nafarroa","lat":"42.58544","fcode":"ADM3"},{"adminCode1":"32","lng":"-2.30716","geonameId":6359596,"toponymName":"Bargota","countryId":"2510769","fcl":"A","population":312,"countryCode":"ES","name":"Bargota","fclName":"country, state, region,...","adminCodes1":{"ISO3166_2":"NC"},"countryName":"Espainia","fcodeName":"third-order administrative division","adminName1":"Nafarroa","lat":"42.53902","fcode":"ADM3"},{"adminCode1":"32","lng":"-1.66175","geonameId":6359597,"toponymName":"Barillas","countryId":"2510769","fcl":"A","population":192,"countryCode":"ES","name":"Barillas","fclName":"country, state, region,...","adminCodes1":{"ISO3166_2":"NC"},"countryName":"Espainia","fcodeName":"third-order administrative division","adminName1":"Nafarroa","lat":"41.97198","fcode":"ADM3"},{"adminCode1":"32","lng":"-1.67275","geonameId":6359594,"toponymName":"Barásoain","countryId":"2510769","fcl":"A","population":674,"countryCode":"ES","name":"Barásoain","fclName":"country, state, region,...","adminCodes1":{"ISO3166_2":"NC"},"countryName":"Espainia","fcodeName":"third-order administrative division","adminName1":"Nafarroa","lat":"42.61109","fcode":"ADM3"},{"adminCode1":"32","lng":"-1.80724","geonameId":6359598,"toponymName":"Basaburua","countryId":"2510769","fcl":"A","population":876,"countryCode":"ES","name":"Basaburua","fclName":"country, state, region,...","adminCodes1":{"ISO3166_2":"NC"},"countryName":"Espainia","fcodeName":"third-order administrative division","adminName1":"Nafarroa","lat":"43.02997","fcode":"ADM3"},{"adminCode1":"32","lng":"-1.55","geonameId":3128449,"toponymName":"Baztan","countryId":"2510769","fcl":"A","population":8035,"countryCode":"ES","name":"Baztan","fclName":"country, state, region,...","adminCodes1":{"ISO3166_2":"NC"},"countryName":"Espainia","fcodeName":"third-order administrative division","adminName1":"Nafarroa","lat":"43.15","fcode":"ADM3"},{"adminCode1":"32","lng":"-1.59374","geonameId":6359599,"toponymName":"Beire","countryId":"2510769","fcl":"A","population":320,"countryCode":"ES","name":"Beire","fclName":"country, state, region,...","adminCodes1":{"ISO3166_2":"NC"},"countryName":"Espainia","fcodeName":"third-order administrative division","adminName1":"Nafarroa","lat":"42.46734","fcode":"ADM3"},{"adminCode1":"32","lng":"-1.82809","geonameId":6359600,"toponymName":"Belascoáin","countryId":"2510769","fcl":"A","population":124,"countryCode":"ES","name":"Belascoáin","fclName":"country, state, region,...","adminCodes1":{"ISO3166_2":"NC"},"countryName":"Espainia","fcodeName":"third-order administrative division","adminName1":"Nafarroa","lat":"42.74859","fcode":"ADM3"},{"adminCode1":"32","lng":"-1.84","geonameId":6359601,"toponymName":"Berbinzana","countryId":"2510769","fcl":"A","population":723,"countryCode":"ES","name":"Berbinzana","fclName":"country, state, region,...","adminCodes1":{"ISO3166_2":"NC"},"countryName":"Espainia","fcodeName":"third-order administrative division","adminName1":"Nafarroa","lat":"42.51763","fcode":"ADM3"},{"adminCode1":"32","lng":"-1.61836","geonameId":6359602,"toponymName":"Bertizarana","countryId":"2510769","fcl":"A","population":628,"countryCode":"ES","name":"Bertizarana","fclName":"country, state, region,...","adminCodes1":{"ISO3166_2":"NC"},"countryName":"Espainia","fcodeName":"third-order administrative division","adminName1":"Nafarroa","lat":"43.1389","fcode":"ADM3"},{"adminCode1":"32","lng":"-1.97467","geonameId":6359603,"toponymName":"Betelu","countryId":"2510769","fcl":"A","population":344,"countryCode":"ES","name":"Betelu","fclName":"country, state, region,...","adminCodes1":{"ISO3166_2":"NC"},"countryName":"Espainia","fcodeName":"third-order administrative division","adminName1":"Nafarroa","lat":"43.01495","fcode":"ADM3"},{"adminCode1":"32","lng":"-1.67873","geonameId":6359604,"toponymName":"Biurrun-Olcoz","countryId":"2510769","fcl":"A","population":235,"countryCode":"ES","name":"Biurrun-Olcoz","fclName":"country, state, region,...","adminCodes1":{"ISO3166_2":"NC"},"countryName":"Espainia","fcodeName":"third-order administrative division","adminName1":"Nafarroa","lat":"42.67443","fcode":"ADM3"},{"adminCode1":"32","lng":"-0.99892","geonameId":6359607,"toponymName":"Burgui/Burgi","countryId":"2510769","fcl":"A","population":237,"countryCode":"ES","name":"Burgui/Burgi","fclName":"country, state, region,...","adminCodes1":{"ISO3166_2":"NC"},"countryName":"Espainia","fcodeName":"third-order administrative division","adminName1":"Nafarroa","lat":"42.7378","fcode":"ADM3"},{"adminCode1":"32","lng":"-1.61522","geonameId":6359608,"toponymName":"Burlada/Burlata","countryId":"2510769","fcl":"A","population":18162,"countryCode":"ES","name":"Burlada/Burlata","fclName":"country, state, region,...","adminCodes1":{"ISO3166_2":"NC"},"countryName":"Espainia","fcodeName":"third-order administrative division","adminName1":"Nafarroa","lat":"42.82484","fcode":"ADM3"},{"adminCode1":"32","lng":"-2.23428","geonameId":6359609,"toponymName":"Busto, El","countryId":"2510769","fcl":"A","population":73,"countryCode":"ES","name":"Busto, El","fclName":"country, state, region,...","adminCodes1":{"ISO3166_2":"NC"},"countryName":"Espainia","fcodeName":"third-order administrative division","adminName1":"Nafarroa","lat":"42.54137","fcode":"ADM3"},{"adminCode1":"32","lng":"-1.44143","geonameId":6359605,"toponymName":"Buñuel","countryId":"2510769","fcl":"A","population":2359,"countryCode":"ES","name":"Buñuel","fclName":"country, state, region,...","adminCodes1":{"ISO3166_2":"NC"},"countryName":"Espainia","fcodeName":"third-order administrative division","adminName1":"Nafarroa","lat":"41.98261","fcode":"ADM3"},{"adminCode1":"32","lng":"-1.52505","geonameId":6359610,"toponymName":"Cabanillas","countryId":"2510769","fcl":"A","population":1490,"countryCode":"ES","name":"Cabanillas","fclName":"country, state, region,...","adminCodes1":{"ISO3166_2":"NC"},"countryName":"Espainia","fcodeName":"third-order administrative division","adminName1":"Nafarroa","lat":"42.03456","fcode":"ADM3"},{"adminCode1":"32","lng":"-2.42741","geonameId":6359611,"toponymName":"Cabredo","countryId":"2510769","fcl":"A","population":109,"countryCode":"ES","name":"Cabredo","fclName":"country, state, region,...","adminCodes1":{"ISO3166_2":"NC"},"countryName":"Espainia","fcodeName":"third-order administrative division","adminName1":"Nafarroa","lat":"42.63293","fcode":"ADM3"},{"adminCode1":"32","lng":"-1.68845","geonameId":6359612,"toponymName":"Cadreita","countryId":"2510769","fcl":"A","population":2106,"countryCode":"ES","name":"Cadreita","fclName":"country, state, region,...","adminCodes1":{"ISO3166_2":"NC"},"countryName":"Espainia","fcodeName":"third-order administrative division","adminName1":"Nafarroa","lat":"42.22084","fcode":"ADM3"},{"adminCode1":"32","lng":"-1.66582","geonameId":6359613,"toponymName":"Caparroso","countryId":"2510769","fcl":"A","population":2821,"countryCode":"ES","name":"Caparroso","fclName":"country, state, region,...","adminCodes1":{"ISO3166_2":"NC"},"countryName":"Espainia","fcodeName":"third-order administrative division","adminName1":"Nafarroa","lat":"42.33423","fcode":"ADM3"},{"adminCode1":"32","lng":"-1.42712","geonameId":6359615,"toponymName":"Carcastillo","countryId":"2510769","fcl":"A","population":2549,"countryCode":"ES","name":"Carcastillo","fclName":"country, state, region,...","adminCodes1":{"ISO3166_2":"NC"},"countryName":"Espainia","fcodeName":"third-order administrative division","adminName1":"Nafarroa","lat":"42.36178","fcode":"ADM3"},{"adminCode1":"32","lng":"-1.68022","geonameId":6359616,"toponymName":"Cascante","countryId":"2510769","fcl":"A","population":3990,"countryCode":"ES","name":"Cascante","fclName":"country, state, region,...","adminCodes1":{"ISO3166_2":"NC"},"countryName":"Espainia","fcodeName":"third-order administrative division","adminName1":"Nafarroa","lat":"42.00822","fcode":"ADM3"},{"adminCode1":"32","lng":"-1.66731","geonameId":6359618,"toponymName":"Castejón","countryId":"2510769","fcl":"A","population":4207,"countryCode":"ES","name":"Castejón","fclName":"country, state, region,...","adminCodes1":{"ISO3166_2":"NC"},"countryName":"Espainia","fcodeName":"third-order administrative division","adminName1":"Nafarroa","lat":"42.16541","fcode":"ADM3"},{"adminCode1":"32","lng":"-1.06485","geonameId":6359619,"toponymName":"Castillonuevo","countryId":"2510769","fcl":"A","population":16,"countryCode":"ES","name":"Castillonuevo","fclName":"country, state, region,...","adminCodes1":{"ISO3166_2":"NC"},"countryName":"Espainia","fcodeName":"third-order administrative division","adminName1":"Nafarroa","lat":"42.66692","fcode":"ADM3"},{"adminCode1":"32","lng":"-1.74843","geonameId":6359741,"toponymName":"Cendea de Olza/Oltza Zendea","countryId":"2510769","fcl":"A","population":1785,"countryCode":"ES","name":"Cendea de Olza/Oltza Zendea","fclName":"country, state, region,...","adminCodes1":{"ISO3166_2":"NC"},"countryName":"Espainia","fcodeName":"third-order administrative division","adminName1":"Nafarroa","lat":"42.81891","fcode":"ADM3"},{"adminCode1":"32","lng":"-1.8088","geonameId":6359620,"toponymName":"Cintruénigo","countryId":"2510769","fcl":"A","population":7811,"countryCode":"ES","name":"Cintruénigo","fclName":"country, state, region,...","adminCodes1":{"ISO3166_2":"NC"},"countryName":"Espainia","fcodeName":"third-order administrative division","adminName1":"Nafarroa","lat":"42.07769","fcode":"ADM3"},{"adminCode1":"32","lng":"-1.89811","geonameId":6359622,"toponymName":"Cirauqui/Zirauki","countryId":"2510769","fcl":"A","population":505,"countryCode":"ES","name":"Cirauqui/Zirauki","fclName":"country, state, region,...","adminCodes1":{"ISO3166_2":"NC"},"countryName":"Espainia","fcodeName":"third-order administrative division","adminName1":"Nafarroa","lat":"42.66155","fcode":"ADM3"},{"adminCode1":"32","lng":"-1.82342","geonameId":6359623,"toponymName":"Ciriza/Ziritza","countryId":"2510769","fcl":"A","population":119,"countryCode":"ES","name":"Ciriza/Ziritza","fclName":"country, state, region,...","adminCodes1":{"ISO3166_2":"NC"},"countryName":"Espainia","fcodeName":"third-order administrative division","adminName1":"Nafarroa","lat":"42.79155","fcode":"ADM3"},{"adminCode1":"32","lng":"-1.79225","geonameId":6359625,"toponymName":"Corella","countryId":"2510769","fcl":"A","population":8049,"countryCode":"ES","name":"Corella","fclName":"country, state, region,...","adminCodes1":{"ISO3166_2":"NC"},"countryName":"Espainia","fcodeName":"third-order administrative division","adminName1":"Nafarroa","lat":"42.1043","fcode":"ADM3"},{"adminCode1":"32","lng":"-1.43961","geonameId":6359626,"toponymName":"Cortes","countryId":"2510769","fcl":"A","population":3281,"countryCode":"ES","name":"Cortes","fclName":"country, state, region,...","adminCodes1":{"ISO3166_2":"NC"},"countryName":"Espainia","fcodeName":"third-order administrative division","adminName1":"Nafarroa","lat":"41.93946","fcode":"ADM3"},{"adminCode1":"32","lng":"-1.97725","geonameId":6359614,"toponymName":"Cárcar","countryId":"2510769","fcl":"A","population":1121,"countryCode":"ES","name":"Cárcar","fclName":"country, state, region,...","adminCodes1":{"ISO3166_2":"NC"},"countryName":"Espainia","fcodeName":"third-order administrative division","adminName1":"Nafarroa","lat":"42.416","fcode":"ADM3"},{"adminCode1":"32","lng":"-1.35721","geonameId":6359617,"toponymName":"Cáseda","countryId":"2510769","fcl":"A","population":1027,"countryCode":"ES","name":"Cáseda","fclName":"country, state, region,...","adminCodes1":{"ISO3166_2":"NC"},"countryName":"Espainia","fcodeName":"third-order administrative division","adminName1":"Nafarroa","lat":"42.50114","fcode":"ADM3"},{"adminCode1":"32","lng":"-2.26766","geonameId":6359627,"toponymName":"Desojo","countryId":"2510769","fcl":"A","population":93,"countryCode":"ES","name":"Desojo","fclName":"country, state, region,...","adminCodes1":{"ISO3166_2":"NC"},"countryName":"Espainia","fcodeName":"third-order administrative division","adminName1":"Nafarroa","lat":"42.58913","fcode":"ADM3"},{"adminCode1":"32","lng":"-2.03535","geonameId":6359628,"toponymName":"Dicastillo","countryId":"2510769","fcl":"A","population":688,"countryCode":"ES","name":"Dicastillo","fclName":"country, state, region,...","adminCodes1":{"ISO3166_2":"NC"},"countryName":"Espainia","fcodeName":"third-order administrative division","adminName1":"Nafarroa","lat":"42.56794","fcode":"ADM3"},{"adminCode1":"32","lng":"-1.66198","geonameId":6359629,"toponymName":"Donamaria","countryId":"2510769","fcl":"A","population":436,"countryCode":"ES","name":"Donamaria","fclName":"country, state, region,...","adminCodes1":{"ISO3166_2":"NC"},"countryName":"Espainia","fcodeName":"third-order administrative division","adminName1":"Nafarroa","lat":"43.08592","fcode":"ADM3"},{"adminCode1":"32","lng":"-1.82816","geonameId":6359631,"toponymName":"Echarri","countryId":"2510769","fcl":"A","population":72,"countryCode":"ES","name":"Echarri","fclName":"country, state, region,...","adminCodes1":{"ISO3166_2":"NC"},"countryName":"Espainia","fcodeName":"third-order administrative division","adminName1":"Nafarroa","lat":"42.78114","fcode":"ADM3"},{"adminCode1":"32","lng":"-1.56673","geonameId":6359634,"toponymName":"Egüés","countryId":"2510769","fcl":"A","population":17450,"countryCode":"ES","name":"Eguesibar","fclName":"country, state, region,...","adminCodes1":{"ISO3166_2":"NC"},"countryName":"Espainia","fcodeName":"third-order administrative division","adminName1":"Nafarroa","lat":"42.81347","fcode":"ADM3"},{"adminCode1":"32","lng":"-1.69121","geonameId":6359635,"toponymName":"Elgorriaga","countryId":"2510769","fcl":"A","population":205,"countryCode":"ES","name":"Elgorriaga","fclName":"country, state, region,...","adminCodes1":{"ISO3166_2":"NC"},"countryName":"Espainia","fcodeName":"third-order administrative division","adminName1":"Nafarroa","lat":"43.13533","fcode":"ADM3"},{"adminCode1":"32","lng":"-1.74387","geonameId":6359637,"toponymName":"Enériz/Eneritz","countryId":"2510769","fcl":"A","population":368,"countryCode":"ES","name":"Enériz/Eneritz","fclName":"country, state, region,...","adminCodes1":{"ISO3166_2":"NC"},"countryName":"Espainia","fcodeName":"third-order administrative division","adminName1":"Nafarroa","lat":"42.66308","fcode":"ADM3"},{"adminCode1":"32","lng":"-1.80999","geonameId":6359638,"toponymName":"Eratsun","countryId":"2510769","fcl":"A","population":160,"countryCode":"ES","name":"Eratsun","fclName":"country, state, region,...","adminCodes1":{"ISO3166_2":"NC"},"countryName":"Espainia","fcodeName":"third-order administrative division","adminName1":"Nafarroa","lat":"43.10908","fcode":"ADM3"},{"adminCode1":"32","lng":"-2.02335","geonameId":6359639,"toponymName":"Ergoiena","countryId":"2510769","fcl":"A","population":405,"countryCode":"ES","name":"Ergoiena","fclName":"country, state, region,...","adminCodes1":{"ISO3166_2":"NC"},"countryName":"Espainia","fcodeName":"third-order administrative division","adminName1":"Nafarroa","lat":"42.89776","fcode":"ADM3"},{"adminCode1":"32","lng":"-1.41814","geonameId":6359640,"toponymName":"Erro","countryId":"2510769","fcl":"A","population":804,"countryCode":"ES","name":"Erro","fclName":"country, state, region,...","adminCodes1":{"ISO3166_2":"NC"},"countryName":"Espainia","fcodeName":"third-order administrative division","adminName1":"Nafarroa","lat":"42.96967","fcode":"ADM3"},{"adminCode1":"32","lng":"-1.46553","geonameId":6359642,"toponymName":"Eslava","countryId":"2510769","fcl":"A","population":122,"countryCode":"ES","name":"Eslava","fclName":"country, state, region,...","adminCodes1":{"ISO3166_2":"NC"},"countryName":"Espainia","fcodeName":"third-order administrative division","adminName1":"Nafarroa","lat":"42.57076","fcode":"ADM3"},{"adminCode1":"32","lng":"-1.08989","geonameId":6359643,"toponymName":"Esparza de Salazar/Espartza Zaraitzu","countryId":"2510769","fcl":"A","population":91,"countryCode":"ES","name":"Esparza de Salazar/Espartza Zaraitzu","fclName":"country, state, region,...","adminCodes1":{"ISO3166_2":"NC"},"countryName":"Espainia","fcodeName":"third-order administrative division","adminName1":"Nafarroa","lat":"42.86087","fcode":"ADM3"},{"adminCode1":"32","lng":"-2.29984","geonameId":6359644,"toponymName":"Espronceda","countryId":"2510769","fcl":"A","population":128,"countryCode":"ES","name":"Espronceda","fclName":"country, state, region,...","adminCodes1":{"ISO3166_2":"NC"},"countryName":"Espainia","fcodeName":"third-order administrative division","adminName1":"Nafarroa","lat":"42.59493","fcode":"ADM3"},{"adminCode1":"32","lng":"-2.02519","geonameId":6359645,"toponymName":"Estella-Lizarra","countryId":"2510769","fcl":"A","population":14138,"countryCode":"ES","name":"Estella-Lizarra","fclName":"country, state, region,...","adminCodes1":{"ISO3166_2":"NC"},"countryName":"Espainia","fcodeName":"third-order administrative division","adminName1":"Nafarroa","lat":"42.66252","fcode":"ADM3"},{"adminCode1":"32","lng":"-1.53284","geonameId":6359646,"toponymName":"Esteribar","countryId":"2510769","fcl":"A","population":2432,"countryCode":"ES","name":"Esteribar","fclName":"country, state, region,...","adminCodes1":{"ISO3166_2":"NC"},"countryName":"Espainia","fcodeName":"third-order administrative division","adminName1":"Nafarroa","lat":"42.95472","fcode":"ADM3"},{"adminCode1":"32","lng":"-2.17544","geonameId":6359647,"toponymName":"Etayo","countryId":"2510769","fcl":"A","population":80,"countryCode":"ES","name":"Etayo","fclName":"country, state, region,...","adminCodes1":{"ISO3166_2":"NC"},"countryName":"Espainia","fcodeName":"third-order administrative division","adminName1":"Nafarroa","lat":"42.61353","fcode":"ADM3"},{"adminCode1":"32","lng":"-1.63338","geonameId":6359630,"toponymName":"Etxalar","countryId":"2510769","fcl":"A","population":818,"countryCode":"ES","name":"Etxalar","fclName":"country, state, region,...","adminCodes1":{"ISO3166_2":"NC"},"countryName":"Espainia","fcodeName":"third-order administrative division","adminName1":"Nafarroa","lat":"43.24348","fcode":"ADM3"},{"adminCode1":"32","lng":"-2.07573","geonameId":6359632,"toponymName":"Etxarri-Aranatz","countryId":"2510769","fcl":"A","population":2487,"countryCode":"ES","name":"Etxarri-Aranatz","fclName":"country, state, region,...","adminCodes1":{"ISO3166_2":"NC"},"countryName":"Espainia","fcodeName":"third-order administrative division","adminName1":"Nafarroa","lat":"42.93245","fcode":"ADM3"},{"adminCode1":"32","lng":"-1.79854","geonameId":6359633,"toponymName":"Etxauri","countryId":"2510769","fcl":"A","population":585,"countryCode":"ES","name":"Etxauri","fclName":"country, state, region,...","adminCodes1":{"ISO3166_2":"NC"},"countryName":"Espainia","fcodeName":"third-order administrative division","adminName1":"Nafarroa","lat":"42.79701","fcode":"ADM3"},{"adminCode1":"32","lng":"-2.20528","geonameId":6359648,"toponymName":"Eulate","countryId":"2510769","fcl":"A","population":332,"countryCode":"ES","name":"Eulate","fclName":"country, state, region,...","adminCodes1":{"ISO3166_2":"NC"},"countryName":"Espainia","fcodeName":"third-order administrative division","adminName1":"Nafarroa","lat":"42.7663","fcode":"ADM3"},{"adminCode1":"32","lng":"-1.63533","geonameId":6359649,"toponymName":"Ezcabarte","countryId":"2510769","fcl":"A","population":1707,"countryCode":"ES","name":"Ezcabarte","fclName":"country, state, region,...","adminCodes1":{"ISO3166_2":"NC"},"countryName":"Espainia","fcodeName":"third-order administrative division","adminName1":"Nafarroa","lat":"42.87729","fcode":"ADM3"},{"adminCode1":"32","lng":"-1.06173","geonameId":6359641,"toponymName":"Ezcároz/Ezkaroze","countryId":"2510769","fcl":"A","population":336,"countryCode":"ES","name":"Ezcároz/Ezkaroze","fclName":"country, state, region,...","adminCodes1":{"ISO3166_2":"NC"},"countryName":"Espainia","fcodeName":"third-order administrative division","adminName1":"Nafarroa","lat":"42.90157","fcode":"ADM3"},{"adminCode1":"32","lng":"-1.83962","geonameId":6359650,"toponymName":"Ezkurra","countryId":"2510769","fcl":"A","population":164,"countryCode":"ES","name":"Ezkurra","fclName":"country, state, region,...","adminCodes1":{"ISO3166_2":"NC"},"countryName":"Espainia","fcodeName":"third-order administrative division","adminName1":"Nafarroa","lat":"43.10996","fcode":"ADM3"},{"adminCode1":"32","lng":"-1.44356","geonameId":6359651,"toponymName":"Ezprogui","countryId":"2510769","fcl":"A","population":49,"countryCode":"ES","name":"Ezprogui","fclName":"country, state, region,...","adminCodes1":{"ISO3166_2":"NC"},"countryName":"Espainia","fcodeName":"third-order administrative division","adminName1":"Nafarroa","lat":"42.59707","fcode":"ADM3"},{"adminCode1":"32","lng":"-1.79993","geonameId":6359652,"toponymName":"Falces","countryId":"2510769","fcl":"A","population":2559,"countryCode":"ES","name":"Falces","fclName":"country, state, region,...","adminCodes1":{"ISO3166_2":"NC"},"countryName":"Espainia","fcodeName":"third-order administrative division","adminName1":"Nafarroa","lat":"42.4235","fcode":"ADM3"},{"adminCode1":"32","lng":"-1.85475","geonameId":6359653,"toponymName":"Fitero","countryId":"2510769","fcl":"A","population":2212,"countryCode":"ES","name":"Fitero","fclName":"country, state, region,...","adminCodes1":{"ISO3166_2":"NC"},"countryName":"Espainia","fcodeName":"third-order administrative division","adminName1":"Nafarroa","lat":"42.04075","fcode":"ADM3"},{"adminCode1":"32","lng":"-1.56839","geonameId":6359654,"toponymName":"Fontellas","countryId":"2510769","fcl":"A","population":955,"countryCode":"ES","name":"Fontellas","fclName":"country, state, region,...","adminCodes1":{"ISO3166_2":"NC"},"countryName":"Espainia","fcodeName":"third-order administrative division","adminName1":"Nafarroa","lat":"42.014","fcode":"ADM3"},{"adminCode1":"32","lng":"-1.7912","geonameId":6359655,"toponymName":"Funes","countryId":"2510769","fcl":"A","population":2525,"countryCode":"ES","name":"Funes","fclName":"country, state, region,...","adminCodes1":{"ISO3166_2":"NC"},"countryName":"Espainia","fcodeName":"third-order administrative division","adminName1":"Nafarroa","lat":"42.29147","fcode":"ADM3"},{"adminCode1":"32","lng":"-1.45476","geonameId":6359656,"toponymName":"Fustiñana","countryId":"2510769","fcl":"A","population":2578,"countryCode":"ES","name":"Fustiñana","fclName":"country, state, region,...","adminCodes1":{"ISO3166_2":"NC"},"countryName":"Espainia","fcodeName":"third-order administrative division","adminName1":"Nafarroa","lat":"42.02173","fcode":"ADM3"},{"adminCode1":"32","lng":"-1.66834","geonameId":6359657,"toponymName":"Galar","countryId":"2510769","fcl":"A","population":1865,"countryCode":"ES","name":"Galar","fclName":"country, state, region,...","adminCodes1":{"ISO3166_2":"NC"},"countryName":"Espainia","fcodeName":"third-order administrative division","adminName1":"Nafarroa","lat":"42.75651","fcode":"ADM3"},{"adminCode1":"32","lng":"-1.41392","geonameId":6359658,"toponymName":"Gallipienzo/Galipentzu","countryId":"2510769","fcl":"A","population":115,"countryCode":"ES","name":"Gallipienzo/Galipentzu","fclName":"country, state, region,...","adminCodes1":{"ISO3166_2":"NC"},"countryName":"Espainia","fcodeName":"third-order administrative division","adminName1":"Nafarroa","lat":"42.50382","fcode":"ADM3"},{"adminCode1":"32","lng":"-1.09566","geonameId":6359659,"toponymName":"Gallués/Galoze","countryId":"2510769","fcl":"A","population":106,"countryCode":"ES","name":"Gallués/Galoze","fclName":"country, state, region,...","adminCodes1":{"ISO3166_2":"NC"},"countryName":"Espainia","fcodeName":"third-order administrative division","adminName1":"Nafarroa","lat":"42.79335","fcode":"ADM3"},{"adminCode1":"32","lng":"-1.24231","geonameId":6359660,"toponymName":"Garaioa","countryId":"2510769","fcl":"A","population":104,"countryCode":"ES","name":"Garaioa","fclName":"country, state, region,...","adminCodes1":{"ISO3166_2":"NC"},"countryName":"Espainia","fcodeName":"third-order administrative division","adminName1":"Nafarroa","lat":"42.92105","fcode":"ADM3"},{"adminCode1":"32","lng":"-0.8896","geonameId":6359661,"toponymName":"Garde","countryId":"2510769","fcl":"A","population":169,"countryCode":"ES","name":"Garde","fclName":"country, state, region,...","adminCodes1":{"ISO3166_2":"NC"},"countryName":"Espainia","fcodeName":"third-order administrative division","adminName1":"Nafarroa","lat":"42.78023","fcode":"ADM3"},{"adminCode1":"32","lng":"-1.30283","geonameId":6359663,"toponymName":"Garralda","countryId":"2510769","fcl":"A","population":189,"countryCode":"ES","name":"Garralda","fclName":"country, state, region,...","adminCodes1":{"ISO3166_2":"NC"},"countryName":"Espainia","fcodeName":"third-order administrative division","adminName1":"Nafarroa","lat":"42.95648","fcode":"ADM3"},{"adminCode1":"32","lng":"-1.66553","geonameId":6359662,"toponymName":"Garínoain","countryId":"2510769","fcl":"A","population":531,"countryCode":"ES","name":"Garínoain","fclName":"country, state, region,...","adminCodes1":{"ISO3166_2":"NC"},"countryName":"Espainia","fcodeName":"third-order administrative division","adminName1":"Nafarroa","lat":"42.59596","fcode":"ADM3"},{"adminCode1":"32","lng":"-2.39457","geonameId":6359664,"toponymName":"Genevilla","countryId":"2510769","fcl":"A","population":80,"countryCode":"ES","name":"Genevilla","fclName":"country, state, region,...","adminCodes1":{"ISO3166_2":"NC"},"countryName":"Espainia","fcodeName":"third-order administrative division","adminName1":"Nafarroa","lat":"42.64789","fcode":"ADM3"},{"adminCode1":"32","lng":"-1.84923","geonameId":6359665,"toponymName":"Goizueta","countryId":"2510769","fcl":"A","population":758,"countryCode":"ES","name":"Goizueta","fclName":"country, state, region,...","adminCodes1":{"ISO3166_2":"NC"},"countryName":"Espainia","fcodeName":"third-order administrative division","adminName1":"Nafarroa","lat":"43.19486","fcode":"ADM3"},{"adminCode1":"32","lng":"-1.88796","geonameId":6359666,"toponymName":"Goñi","countryId":"2510769","fcl":"A","population":189,"countryCode":"ES","name":"Goñi","fclName":"country, state, region,...","adminCodes1":{"ISO3166_2":"NC"},"countryName":"Espainia","fcodeName":"third-order administrative division","adminName1":"Nafarroa","lat":"42.83392","fcode":"ADM3"},{"adminCode1":"32","lng":"-1.91428","geonameId":6359668,"toponymName":"Guesálaz/Gesalatz","countryId":"2510769","fcl":"A","population":464,"countryCode":"ES","name":"Guesálaz/Gesalatz","fclName":"country, state, region,...","adminCodes1":{"ISO3166_2":"NC"},"countryName":"Espainia","fcodeName":"third-order administrative division","adminName1":"Nafarroa","lat":"42.76392","fcode":"ADM3"},{"adminCode1":"32","lng":"-1.85976","geonameId":6359669,"toponymName":"Guirguillano","countryId":"2510769","fcl":"A","population":92,"countryCode":"ES","name":"Guirguillano","fclName":"country, state, region,...","adminCodes1":{"ISO3166_2":"NC"},"countryName":"Espainia","fcodeName":"third-order administrative division","adminName1":"Nafarroa","lat":"42.72092","fcode":"ADM3"},{"adminCode1":"32","lng":"-1.06524","geonameId":6359667,"toponymName":"Güesa/Gorza","countryId":"2510769","fcl":"A","population":51,"countryCode":"ES","name":"Güesa/Gorza","fclName":"country, state, region,...","adminCodes1":{"ISO3166_2":"NC"},"countryName":"Espainia","fcodeName":"third-order administrative division","adminName1":"Nafarroa","lat":"42.82261","fcode":"ADM3"},{"adminCode1":"32","lng":"-1.59439","geonameId":6359670,"toponymName":"Huarte/Uharte","countryId":"2510769","fcl":"A","population":6543,"countryCode":"ES","name":"Huarte/Uharte","fclName":"country, state, region,...","adminCodes1":{"ISO3166_2":"NC"},"countryName":"Espainia","fcodeName":"third-order administrative division","adminName1":"Nafarroa","lat":"42.82883","fcode":"ADM3"},{"adminCode1":"32","lng":"-1.46274","geonameId":6359672,"toponymName":"Ibargoiti","countryId":"2510769","fcl":"A","population":237,"countryCode":"ES","name":"Ibargoiti","fclName":"country, state, region,...","adminCodes1":{"ISO3166_2":"NC"},"countryName":"Espainia","fcodeName":"third-order administrative division","adminName1":"Nafarroa","lat":"42.67462","fcode":"ADM3"},{"adminCode1":"32","lng":"-2.09246","geonameId":6359673,"toponymName":"Igúzquiza","countryId":"2510769","fcl":"A","population":336,"countryCode":"ES","name":"Igúzquiza","fclName":"country, state, region,...","adminCodes1":{"ISO3166_2":"NC"},"countryName":"Espainia","fcodeName":"third-order administrative division","adminName1":"Nafarroa","lat":"42.64082","fcode":"ADM3"},{"adminCode1":"32","lng":"-1.80285","geonameId":6359674,"toponymName":"Imotz","countryId":"2510769","fcl":"A","population":435,"countryCode":"ES","name":"Imotz","fclName":"country, state, region,...","adminCodes1":{"ISO3166_2":"NC"},"countryName":"Espainia","fcodeName":"third-order administrative division","adminName1":"Nafarroa","lat":"42.96009","fcode":"ADM3"},{"adminCode1":"32","lng":"-1.93684","geonameId":6359675,"toponymName":"Irañeta","countryId":"2510769","fcl":"A","population":166,"countryCode":"ES","name":"Irañeta","fclName":"country, state, region,...","adminCodes1":{"ISO3166_2":"NC"},"countryName":"Espainia","fcodeName":"third-order administrative division","adminName1":"Nafarroa","lat":"42.9129","fcode":"ADM3"},{"adminCode1":"32","lng":"-1.29","geonameId":6359707,"toponymName":"Lumbier","countryId":"2510769","fcl":"A","population":1417,"countryCode":"ES","name":"Irunberri","fclName":"country, state, region,...","adminCodes1":{"ISO3166_2":"NC"},"countryName":"Espainia","fcodeName":"third-order administrative division","adminName1":"Nafarroa","lat":"42.64793","fcode":"ADM3"},{"adminCode1":"32","lng":"-1.82611","geonameId":6534179,"toponymName":"Irurtzun","countryId":"2510769","fcl":"A","population":2302,"countryCode":"ES","name":"Irurtzun","fclName":"country, state, region,...","adminCodes1":{"ISO3166_2":"NC"},"countryName":"Espainia","fcodeName":"third-order administrative division","adminName1":"Nafarroa","lat":"42.92665","fcode":"ADM3"},{"adminCode1":"32","lng":"-0.85404","geonameId":6359676,"toponymName":"Isaba/Izaba","countryId":"2510769","fcl":"A","population":507,"countryCode":"ES","name":"Isaba/Izaba","fclName":"country, state, region,...","adminCodes1":{"ISO3166_2":"NC"},"countryName":"Espainia","fcodeName":"third-order administrative division","adminName1":"Nafarroa","lat":"42.89688","fcode":"ADM3"},{"adminCode1":"32","lng":"-1.7159","geonameId":6359677,"toponymName":"Ituren","countryId":"2510769","fcl":"A","population":518,"countryCode":"ES","name":"Ituren","fclName":"country, state, region,...","adminCodes1":{"ISO3166_2":"NC"},"countryName":"Espainia","fcodeName":"third-order administrative division","adminName1":"Nafarroa","lat":"43.1287","fcode":"ADM3"},{"adminCode1":"32","lng":"-2.12603","geonameId":6359678,"toponymName":"Iturmendi","countryId":"2510769","fcl":"A","population":390,"countryCode":"ES","name":"Iturmendi","fclName":"country, state, region,...","adminCodes1":{"ISO3166_2":"NC"},"countryName":"Espainia","fcodeName":"third-order administrative division","adminName1":"Nafarroa","lat":"42.9107","fcode":"ADM3"},{"adminCode1":"32","lng":"-1.77016","geonameId":6359679,"toponymName":"Iza/Itza","countryId":"2510769","fcl":"A","population":1134,"countryCode":"ES","name":"Iza/Itza","fclName":"country, state, region,...","adminCodes1":{"ISO3166_2":"NC"},"countryName":"Espainia","fcodeName":"third-order administrative division","adminName1":"Nafarroa","lat":"42.88198","fcode":"ADM3"},{"adminCode1":"32","lng":"-1.43147","geonameId":6359680,"toponymName":"Izagaondoa","countryId":"2510769","fcl":"A","population":183,"countryCode":"ES","name":"Izagaondoa","fclName":"country, state, region,...","adminCodes1":{"ISO3166_2":"NC"},"countryName":"Espainia","fcodeName":"third-order administrative division","adminName1":"Nafarroa","lat":"42.74267","fcode":"ADM3"},{"adminCode1":"32","lng":"-1.03001","geonameId":6359681,"toponymName":"Izalzu/Itzaltzu","countryId":"2510769","fcl":"A","population":50,"countryCode":"ES","name":"Izalzu/Itzaltzu","fclName":"country, state, region,...","adminCodes1":{"ISO3166_2":"NC"},"countryName":"Espainia","fcodeName":"third-order administrative division","adminName1":"Nafarroa","lat":"42.92739","fcode":"ADM3"},{"adminCode1":"32","lng":"-1.15418","geonameId":6359682,"toponymName":"Jaurrieta","countryId":"2510769","fcl":"A","population":218,"countryCode":"ES","name":"Jaurrieta","fclName":"country, state, region,...","adminCodes1":{"ISO3166_2":"NC"},"countryName":"Espainia","fcodeName":"third-order administrative division","adminName1":"Nafarroa","lat":"42.91272","fcode":"ADM3"},{"adminCode1":"32","lng":"-1.28984","geonameId":6359683,"toponymName":"Javier","countryId":"2510769","fcl":"A","population":120,"countryCode":"ES","name":"Javier","fclName":"country, state, region,...","adminCodes1":{"ISO3166_2":"NC"},"countryName":"Espainia","fcodeName":"third-order administrative division","adminName1":"Nafarroa","lat":"42.50412","fcode":"ADM3"},{"adminCode1":"32","lng":"-1.70098","geonameId":6359684,"toponymName":"Juslapeña","countryId":"2510769","fcl":"A","population":558,"countryCode":"ES","name":"Juslapeña","fclName":"country, state, region,...","adminCodes1":{"ISO3166_2":"NC"},"countryName":"Espainia","fcodeName":"third-order administrative division","adminName1":"Nafarroa","lat":"42.89969","fcode":"ADM3"},{"adminCode1":"32","lng":"-1.73679","geonameId":6359685,"toponymName":"Beintza-Labaien","countryId":"2510769","fcl":"A","population":242,"countryCode":"ES","name":"Labaien","fclName":"country, state, region,...","adminCodes1":{"ISO3166_2":"NC"},"countryName":"Espainia","fcodeName":"third-order administrative division","adminName1":"Nafarroa","lat":"43.10618","fcode":"ADM3"},{"adminCode1":"32","lng":"-2.01361","geonameId":6359686,"toponymName":"Lakuntza","countryId":"2510769","fcl":"A","population":1252,"countryCode":"ES","name":"Lakuntza","fclName":"country, state, region,...","adminCodes1":{"ISO3166_2":"NC"},"countryName":"Espainia","fcodeName":"third-order administrative division","adminName1":"Nafarroa","lat":"42.93268","fcode":"ADM3"},{"adminCode1":"32","lng":"-2.25458","geonameId":6359687,"toponymName":"Lana","countryId":"2510769","fcl":"A","population":191,"countryCode":"ES","name":"Lana","fclName":"country, state, region,...","adminCodes1":{"ISO3166_2":"NC"},"countryName":"Espainia","fcodeName":"third-order administrative division","adminName1":"Nafarroa","lat":"42.71011","fcode":"ADM3"},{"adminCode1":"32","lng":"-1.6059","geonameId":6359688,"toponymName":"Lantz","countryId":"2510769","fcl":"A","population":140,"countryCode":"ES","name":"Lantz","fclName":"country, state, region,...","adminCodes1":{"ISO3166_2":"NC"},"countryName":"Espainia","fcodeName":"third-order administrative division","adminName1":"Nafarroa","lat":"43.00942","fcode":"ADM3"},{"adminCode1":"32","lng":"-2.46033","geonameId":6359689,"toponymName":"Lapoblación","countryId":"2510769","fcl":"A","population":147,"countryCode":"ES","name":"Lapoblación","fclName":"country, state, region,...","adminCodes1":{"ISO3166_2":"NC"},"countryName":"Espainia","fcodeName":"third-order administrative division","adminName1":"Nafarroa","lat":"42.60504","fcode":"ADM3"},{"adminCode1":"32","lng":"-1.85909","geonameId":6359690,"toponymName":"Larraga","countryId":"2510769","fcl":"A","population":2152,"countryCode":"ES","name":"Larraga","fclName":"country, state, region,...","adminCodes1":{"ISO3166_2":"NC"},"countryName":"Espainia","fcodeName":"third-order administrative division","adminName1":"Nafarroa","lat":"42.55182","fcode":"ADM3"},{"adminCode1":"32","lng":"-2.25545","geonameId":6359691,"toponymName":"Larraona","countryId":"2510769","fcl":"A","population":114,"countryCode":"ES","name":"Larraona","fclName":"country, state, region,...","adminCodes1":{"ISO3166_2":"NC"},"countryName":"Espainia","fcodeName":"third-order administrative division","adminName1":"Nafarroa","lat":"42.77374","fcode":"ADM3"},{"adminCode1":"32","lng":"-1.90631","geonameId":6359692,"toponymName":"Larraun","countryId":"2510769","fcl":"A","population":1015,"countryCode":"ES","name":"Larraun","fclName":"country, state, region,...","adminCodes1":{"ISO3166_2":"NC"},"countryName":"Espainia","fcodeName":"third-order administrative division","adminName1":"Nafarroa","lat":"43.00027","fcode":"ADM3"},{"adminCode1":"32","lng":"-2.23363","geonameId":6359693,"toponymName":"Lazagurría","countryId":"2510769","fcl":"A","population":206,"countryCode":"ES","name":"Lazagurría","fclName":"country, state, region,...","adminCodes1":{"ISO3166_2":"NC"},"countryName":"Espainia","fcodeName":"third-order administrative division","adminName1":"Nafarroa","lat":"42.49247","fcode":"ADM3"},{"adminCode1":"32","lng":"-1.40969","geonameId":6359694,"toponymName":"Leache","countryId":"2510769","fcl":"A","population":57,"countryCode":"ES","name":"Leache","fclName":"country, state, region,...","adminCodes1":{"ISO3166_2":"NC"},"countryName":"Espainia","fcodeName":"third-order administrative division","adminName1":"Nafarroa","lat":"42.61547","fcode":"ADM3"},{"adminCode1":"32","lng":"-1.77779","geonameId":6359695,"toponymName":"Legarda","countryId":"2510769","fcl":"A","population":118,"countryCode":"ES","name":"Legarda","fclName":"country, state, region,...","adminCodes1":{"ISO3166_2":"NC"},"countryName":"Espainia","fcodeName":"third-order administrative division","adminName1":"Nafarroa","lat":"42.71796","fcode":"ADM3"},{"adminCode1":"32","lng":"-2.17679","geonameId":6359696,"toponymName":"Legaria","countryId":"2510769","fcl":"A","population":109,"countryCode":"ES","name":"Legaria","fclName":"country, state, region,...","adminCodes1":{"ISO3166_2":"NC"},"countryName":"Espainia","fcodeName":"third-order administrative division","adminName1":"Nafarroa","lat":"42.64285","fcode":"ADM3"},{"adminCode1":"32","lng":"-1.88208","geonameId":6359697,"toponymName":"Leitza","countryId":"2510769","fcl":"A","population":2916,"countryCode":"ES","name":"Leitza","fclName":"country, state, region,...","adminCodes1":{"ISO3166_2":"NC"},"countryName":"Espainia","fcodeName":"third-order administrative division","adminName1":"Nafarroa","lat":"43.12296","fcode":"ADM3"},{"adminCode1":"32","lng":"-1.57566","geonameId":6359698,"toponymName":"Leoz/Leotz","countryId":"2510769","fcl":"A","population":261,"countryCode":"ES","name":"Leoz/Leotz","fclName":"country, state, region,...","adminCodes1":{"ISO3166_2":"NC"},"countryName":"Espainia","fcodeName":"third-order administrative division","adminName1":"Nafarroa","lat":"42.58594","fcode":"ADM3"},{"adminCode1":"32","lng":"-1.50125","geonameId":6359699,"toponymName":"Lerga","countryId":"2510769","fcl":"A","population":74,"countryCode":"ES","name":"Lerga","fclName":"country, state, region,...","adminCodes1":{"ISO3166_2":"NC"},"countryName":"Espainia","fcodeName":"third-order administrative division","adminName1":"Nafarroa","lat":"42.56195","fcode":"ADM3"},{"adminCode1":"32","lng":"-1.9609","geonameId":6359700,"toponymName":"Lerín","countryId":"2510769","fcl":"A","population":1814,"countryCode":"ES","name":"Lerín","fclName":"country, state, region,...","adminCodes1":{"ISO3166_2":"NC"},"countryName":"Espainia","fcodeName":"third-order administrative division","adminName1":"Nafarroa","lat":"42.49006","fcode":"ADM3"},{"adminCode1":"32","lng":"-1.72615","geonameId":6359701,"toponymName":"Lesaka","countryId":"2510769","fcl":"A","population":2807,"countryCode":"ES","name":"Lesaka","fclName":"country, state, region,...","adminCodes1":{"ISO3166_2":"NC"},"countryName":"Espainia","fcodeName":"third-order administrative division","adminName1":"Nafarroa","lat":"43.26224","fcode":"ADM3"},{"adminCode1":"32","lng":"-2.00191","geonameId":6359702,"toponymName":"Lezáun","countryId":"2510769","fcl":"A","population":264,"countryCode":"ES","name":"Lezáun","fclName":"country, state, region,...","adminCodes1":{"ISO3166_2":"NC"},"countryName":"Espainia","fcodeName":"third-order administrative division","adminName1":"Nafarroa","lat":"42.78659","fcode":"ADM3"},{"adminCode1":"32","lng":"-1.46955","geonameId":6359704,"toponymName":"Lizoáin-Arriasgoiti","countryId":"2510769","fcl":"A","population":317,"countryCode":"ES","name":"Lizoáin-Arriasgoiti","fclName":"country, state, region,...","adminCodes1":{"ISO3166_2":"NC"},"countryName":"Espainia","fcodeName":"third-order administrative division","adminName1":"Nafarroa","lat":"42.82966","fcode":"ADM3"},{"adminCode1":"32","lng":"-1.25396","geonameId":6359703,"toponymName":"Liédena","countryId":"2510769","fcl":"A","population":327,"countryCode":"ES","name":"Liédena","fclName":"country, state, region,...","adminCodes1":{"ISO3166_2":"NC"},"countryName":"Espainia","fcodeName":"third-order administrative division","adminName1":"Nafarroa","lat":"42.61152","fcode":"ADM3"},{"adminCode1":"32","lng":"-2.07483","geonameId":6359705,"toponymName":"Lodosa","countryId":"2510769","fcl":"A","population":4939,"countryCode":"ES","name":"Lodosa","fclName":"country, state, region,...","adminCodes1":{"ISO3166_2":"NC"},"countryName":"Espainia","fcodeName":"third-order administrative division","adminName1":"Nafarroa","lat":"42.39501","fcode":"ADM3"},{"adminCode1":"32","lng":"-2.15431","geonameId":6359708,"toponymName":"Luquin","countryId":"2510769","fcl":"A","population":131,"countryCode":"ES","name":"Luquin","fclName":"country, state, region,...","adminCodes1":{"ISO3166_2":"NC"},"countryName":"Espainia","fcodeName":"third-order administrative division","adminName1":"Nafarroa","lat":"42.53895","fcode":"ADM3"},{"adminCode1":"32","lng":"-1.35871","geonameId":6359706,"toponymName":"Lónguida/Longida","countryId":"2510769","fcl":"A","population":324,"countryCode":"ES","name":"Lónguida/Longida","fclName":"country, state, region,...","adminCodes1":{"ISO3166_2":"NC"},"countryName":"Espainia","fcodeName":"third-order administrative division","adminName1":"Nafarroa","lat":"42.78178","fcode":"ADM3"},{"adminCode1":"32","lng":"-2.44128","geonameId":6359710,"toponymName":"Marañón","countryId":"2510769","fcl":"A","population":55,"countryCode":"ES","name":"Marañón","fclName":"country, state, region,...","adminCodes1":{"ISO3166_2":"NC"},"countryName":"Espainia","fcodeName":"third-order administrative division","adminName1":"Nafarroa","lat":"42.6236","fcode":"ADM3"},{"adminCode1":"32","lng":"-1.71176","geonameId":6359711,"toponymName":"Marcilla","countryId":"2510769","fcl":"A","population":2815,"countryCode":"ES","name":"Marcilla","fclName":"country, state, region,...","adminCodes1":{"ISO3166_2":"NC"},"countryName":"Espainia","fcodeName":"third-order administrative division","adminName1":"Nafarroa","lat":"42.35193","fcode":"ADM3"},{"adminCode1":"32","lng":"-1.84992","geonameId":6359709,"toponymName":"Mañeru","countryId":"2510769","fcl":"A","population":442,"countryCode":"ES","name":"Mañeru","fclName":"country, state, region,...","adminCodes1":{"ISO3166_2":"NC"},"countryName":"Espainia","fcodeName":"third-order administrative division","adminName1":"Nafarroa","lat":"42.65604","fcode":"ADM3"},{"adminCode1":"32","lng":"-2.20237","geonameId":6359713,"toponymName":"Mendavia","countryId":"2510769","fcl":"A","population":3726,"countryCode":"ES","name":"Mendavia","fclName":"country, state, region,...","adminCodes1":{"ISO3166_2":"NC"},"countryName":"Espainia","fcodeName":"third-order administrative division","adminName1":"Nafarroa","lat":"42.44788","fcode":"ADM3"},{"adminCode1":"32","lng":"-2.25094","geonameId":6359714,"toponymName":"Mendaza","countryId":"2510769","fcl":"A","population":350,"countryCode":"ES","name":"Mendaza","fclName":"country, state, region,...","adminCodes1":{"ISO3166_2":"NC"},"countryName":"Espainia","fcodeName":"third-order administrative division","adminName1":"Nafarroa","lat":"42.66023","fcode":"ADM3"},{"adminCode1":"32","lng":"-1.84072","geonameId":6359715,"toponymName":"Mendigorría","countryId":"2510769","fcl":"A","population":1085,"countryCode":"ES","name":"Mendigorría","fclName":"country, state, region,...","adminCodes1":{"ISO3166_2":"NC"},"countryName":"Espainia","fcodeName":"third-order administrative division","adminName1":"Nafarroa","lat":"42.61748","fcode":"ADM3"},{"adminCode1":"32","lng":"-2.12641","geonameId":6359716,"toponymName":"Metauten","countryId":"2510769","fcl":"A","population":287,"countryCode":"ES","name":"Metauten","fclName":"country, state, region,...","adminCodes1":{"ISO3166_2":"NC"},"countryName":"Espainia","fcodeName":"third-order administrative division","adminName1":"Nafarroa","lat":"42.68714","fcode":"ADM3"},{"adminCode1":"32","lng":"-1.764","geonameId":6359717,"toponymName":"Milagro","countryId":"2510769","fcl":"A","population":3378,"countryCode":"ES","name":"Milagro","fclName":"country, state, region,...","adminCodes1":{"ISO3166_2":"NC"},"countryName":"Espainia","fcodeName":"third-order administrative division","adminName1":"Nafarroa","lat":"42.23861","fcode":"ADM3"},{"adminCode1":"32","lng":"-2.27649","geonameId":6359718,"toponymName":"Mirafuentes","countryId":"2510769","fcl":"A","population":49,"countryCode":"ES","name":"Mirafuentes","fclName":"country, state, region,...","adminCodes1":{"ISO3166_2":"NC"},"countryName":"Espainia","fcodeName":"third-order administrative division","adminName1":"Nafarroa","lat":"42.62327","fcode":"ADM3"},{"adminCode1":"32","lng":"-1.83125","geonameId":6359719,"toponymName":"Miranda de Arga","countryId":"2510769","fcl":"A","population":916,"countryCode":"ES","name":"Miranda de Arga","fclName":"country, state, region,...","adminCodes1":{"ISO3166_2":"NC"},"countryName":"Espainia","fcodeName":"third-order administrative division","adminName1":"Nafarroa","lat":"42.48425","fcode":"ADM3"},{"adminCode1":"32","lng":"-1.53099","geonameId":6359720,"toponymName":"Monreal/Elo","countryId":"2510769","fcl":"A","population":482,"countryCode":"ES","name":"Monreal/Elo","fclName":"country, state, region,...","adminCodes1":{"ISO3166_2":"NC"},"countryName":"Espainia","fcodeName":"third-order administrative division","adminName1":"Nafarroa","lat":"42.70382","fcode":"ADM3"},{"adminCode1":"32","lng":"-1.69486","geonameId":6359721,"toponymName":"Monteagudo","countryId":"2510769","fcl":"A","population":1145,"countryCode":"ES","name":"Monteagudo","fclName":"country, state, region,...","adminCodes1":{"ISO3166_2":"NC"},"countryName":"Espainia","fcodeName":"third-order administrative division","adminName1":"Nafarroa","lat":"41.96626","fcode":"ADM3"},{"adminCode1":"32","lng":"-1.99378","geonameId":6359722,"toponymName":"Morentin","countryId":"2510769","fcl":"A","population":133,"countryCode":"ES","name":"Morentin","fclName":"country, state, region,...","adminCodes1":{"ISO3166_2":"NC"},"countryName":"Espainia","fcodeName":"third-order administrative division","adminName1":"Nafarroa","lat":"42.59716","fcode":"ADM3"},{"adminCode1":"32","lng":"-2.22879","geonameId":6359723,"toponymName":"Mues","countryId":"2510769","fcl":"A","population":96,"countryCode":"ES","name":"Mues","fclName":"country, state, region,...","adminCodes1":{"ISO3166_2":"NC"},"countryName":"Espainia","fcodeName":"third-order administrative division","adminName1":"Nafarroa","lat":"42.59669","fcode":"ADM3"},{"adminCode1":"32","lng":"-1.66278","geonameId":6359724,"toponymName":"Murchante","countryId":"2510769","fcl":"A","population":3758,"countryCode":"ES","name":"Murchante","fclName":"country, state, region,...","adminCodes1":{"ISO3166_2":"NC"},"countryName":"Espainia","fcodeName":"third-order administrative division","adminName1":"Nafarroa","lat":"42.04198","fcode":"ADM3"},{"adminCode1":"32","lng":"-2.14748","geonameId":6359725,"toponymName":"Murieta","countryId":"2510769","fcl":"A","population":352,"countryCode":"ES","name":"Murieta","fclName":"country, state, region,...","adminCodes1":{"ISO3166_2":"NC"},"countryName":"Espainia","fcodeName":"third-order administrative division","adminName1":"Nafarroa","lat":"42.65826","fcode":"ADM3"},{"adminCode1":"32","lng":"-1.60247","geonameId":6359726,"toponymName":"Murillo el Cuende","countryId":"2510769","fcl":"A","population":687,"countryCode":"ES","name":"Murillo el Cuende","fclName":"country, state, region,...","adminCodes1":{"ISO3166_2":"NC"},"countryName":"Espainia","fcodeName":"third-order administrative division","adminName1":"Nafarroa","lat":"42.35731","fcode":"ADM3"},{"adminCode1":"32","lng":"-1.45702","geonameId":6359727,"toponymName":"Murillo el Fruto","countryId":"2510769","fcl":"A","population":683,"countryCode":"ES","name":"Murillo el Fruto","fclName":"country, state, region,...","adminCodes1":{"ISO3166_2":"NC"},"countryName":"Espainia","fcodeName":"third-order administrative division","adminName1":"Nafarroa","lat":"42.39991","fcode":"ADM3"},{"adminCode1":"32","lng":"-1.75709","geonameId":6359728,"toponymName":"Muruzábal","countryId":"2510769","fcl":"A","population":282,"countryCode":"ES","name":"Muruzábal","fclName":"country, state, region,...","adminCodes1":{"ISO3166_2":"NC"},"countryName":"Espainia","fcodeName":"third-order administrative division","adminName1":"Nafarroa","lat":"42.69052","fcode":"ADM3"},{"adminCode1":"32","lng":"-1.53089","geonameId":6359712,"toponymName":"Mélida","countryId":"2510769","fcl":"A","population":717,"countryCode":"ES","name":"Mélida","fclName":"country, state, region,...","adminCodes1":{"ISO3166_2":"NC"},"countryName":"Espainia","fcodeName":"third-order administrative division","adminName1":"Nafarroa","lat":"42.35346","fcode":"ADM3"},{"adminCode1":"32","lng":"-1.10434","geonameId":6359729,"toponymName":"Navascués/Nabaskoze","countryId":"2510769","fcl":"A","population":171,"countryCode":"ES","name":"Navascués/Nabaskoze","fclName":"country, state, region,...","adminCodes1":{"ISO3166_2":"NC"},"countryName":"Espainia","fcodeName":"third-order administrative division","adminName1":"Nafarroa","lat":"42.72659","fcode":"ADM3"},{"adminCode1":"32","lng":"-2.28044","geonameId":6359730,"toponymName":"Nazar","countryId":"2510769","fcl":"A","population":50,"countryCode":"ES","name":"Nazar","fclName":"country, state, region,...","adminCodes1":{"ISO3166_2":"NC"},"countryName":"Espainia","fcodeName":"third-order administrative division","adminName1":"Nafarroa","lat":"42.63957","fcode":"ADM3"},{"adminCode1":"32","lng":"-1.59375","geonameId":6359636,"toponymName":"Noáin (Valle de Elorz)/Noain (Elortzibar)","countryId":"2510769","fcl":"A","population":7566,"countryCode":"ES","name":"Noáin (Valle de Elorz)/Noain (Elortzibar)","fclName":"country, state, region,...","adminCodes1":{"ISO3166_2":"NC"},"countryName":"Espainia","fcodeName":"third-order administrative division","adminName1":"Nafarroa","lat":"42.73908","fcode":"ADM3"},{"adminCode1":"32","lng":"-1.78414","geonameId":6359731,"toponymName":"Obanos","countryId":"2510769","fcl":"A","population":911,"countryCode":"ES","name":"Obanos","fclName":"country, state, region,...","adminCodes1":{"ISO3166_2":"NC"},"countryName":"Espainia","fcodeName":"third-order administrative division","adminName1":"Nafarroa","lat":"42.66171","fcode":"ADM3"},{"adminCode1":"32","lng":"-1.0744","geonameId":6359733,"toponymName":"Ochagavía/Otsagabia","countryId":"2510769","fcl":"A","population":618,"countryCode":"ES","name":"Ochagavía/Otsagabia","fclName":"country, state, region,...","adminCodes1":{"ISO3166_2":"NC"},"countryName":"Espainia","fcodeName":"third-order administrative division","adminName1":"Nafarroa","lat":"42.94873","fcode":"ADM3"},{"adminCode1":"32","lng":"-2.16046","geonameId":6359732,"toponymName":"Oco","countryId":"2510769","fcl":"A","population":71,"countryCode":"ES","name":"Oco","fclName":"country, state, region,...","adminCodes1":{"ISO3166_2":"NC"},"countryName":"Espainia","fcodeName":"third-order administrative division","adminName1":"Nafarroa","lat":"42.64349","fcode":"ADM3"},{"adminCode1":"32","lng":"-1.64592","geonameId":6359734,"toponymName":"Odieta","countryId":"2510769","fcl":"A","population":353,"countryCode":"ES","name":"Odieta","fclName":"country, state, region,...","adminCodes1":{"ISO3166_2":"NC"},"countryName":"Espainia","fcodeName":"third-order administrative division","adminName1":"Nafarroa","lat":"42.9315","fcode":"ADM3"},{"adminCode1":"32","lng":"-1.69092","geonameId":6359735,"toponymName":"Oitz","countryId":"2510769","fcl":"A","population":155,"countryCode":"ES","name":"Oitz","fclName":"country, state, region,...","adminCodes1":{"ISO3166_2":"NC"},"countryName":"Espainia","fcodeName":"third-order administrative division","adminName1":"Nafarroa","lat":"43.09295","fcode":"ADM3"},{"adminCode1":"32","lng":"-1.60323","geonameId":6359736,"toponymName":"Olaibar","countryId":"2510769","fcl":"A","population":262,"countryCode":"ES","name":"Olaibar","fclName":"country, state, region,...","adminCodes1":{"ISO3166_2":"NC"},"countryName":"Espainia","fcodeName":"third-order administrative division","adminName1":"Nafarroa","lat":"42.90002","fcode":"ADM3"},{"adminCode1":"32","lng":"-2.1983","geonameId":6359737,"toponymName":"Olazti/Olazagutía","countryId":"2510769","fcl":"A","population":1662,"countryCode":"ES","name":"Olazti/Olazagutía","fclName":"country, state, region,...","adminCodes1":{"ISO3166_2":"NC"},"countryName":"Espainia","fcodeName":"third-order administrative division","adminName1":"Nafarroa","lat":"42.87596","fcode":"ADM3"},{"adminCode1":"32","lng":"-2.13975","geonameId":6359738,"toponymName":"Olejua","countryId":"2510769","fcl":"A","population":55,"countryCode":"ES","name":"Olejua","fclName":"country, state, region,...","adminCodes1":{"ISO3166_2":"NC"},"countryName":"Espainia","fcodeName":"third-order administrative division","adminName1":"Nafarroa","lat":"42.62332","fcode":"ADM3"},{"adminCode1":"32","lng":"-1.6798","geonameId":6359739,"toponymName":"Olite/Erriberri","countryId":"2510769","fcl":"A","population":3832,"countryCode":"ES","name":"Olite/Erriberri","fclName":"country, state, region,...","adminCodes1":{"ISO3166_2":"NC"},"countryName":"Espainia","fcodeName":"third-order administrative division","adminName1":"Nafarroa","lat":"42.44741","fcode":"ADM3"},{"adminCode1":"32","lng":"-1.84941","geonameId":6359742,"toponymName":"Ollo","countryId":"2510769","fcl":"A","population":401,"countryCode":"ES","name":"Ollo","fclName":"country, state, region,...","adminCodes1":{"ISO3166_2":"NC"},"countryName":"Espainia","fcodeName":"third-order administrative division","adminName1":"Nafarroa","lat":"42.86119","fcode":"ADM3"},{"adminCode1":"32","lng":"-1.59677","geonameId":6359740,"toponymName":"Olóriz/Oloritz","countryId":"2510769","fcl":"A","population":179,"countryCode":"ES","name":"Olóriz/Oloritz","fclName":"country, state, region,...","adminCodes1":{"ISO3166_2":"NC"},"countryName":"Espainia","fcodeName":"third-order administrative division","adminName1":"Nafarroa","lat":"42.64182","fcode":"ADM3"},{"adminCode1":"32","lng":"-1.21318","geonameId":6359743,"toponymName":"Orbaizeta","countryId":"2510769","fcl":"A","population":217,"countryCode":"ES","name":"Orbaizeta","fclName":"country, state, region,...","adminCodes1":{"ISO3166_2":"NC"},"countryName":"Espainia","fcodeName":"third-order administrative division","adminName1":"Nafarroa","lat":"42.99705","fcode":"ADM3"},{"adminCode1":"32","lng":"-1.24634","geonameId":6359744,"toponymName":"Orbara","countryId":"2510769","fcl":"A","population":43,"countryCode":"ES","name":"Orbara","fclName":"country, state, region,...","adminCodes1":{"ISO3166_2":"NC"},"countryName":"Espainia","fcodeName":"third-order administrative division","adminName1":"Nafarroa","lat":"42.9729","fcode":"ADM3"},{"adminCode1":"32","lng":"-1.06922","geonameId":6359746,"toponymName":"Oronz/Orontze","countryId":"2510769","fcl":"A","population":49,"countryCode":"ES","name":"Oronz/Orontze","fclName":"country, state, region,...","adminCodes1":{"ISO3166_2":"NC"},"countryName":"Espainia","fcodeName":"third-order administrative division","adminName1":"Nafarroa","lat":"42.87339","fcode":"ADM3"},{"adminCode1":"32","lng":"-1.30505","geonameId":6359747,"toponymName":"Oroz-Betelu/Orotz-Betelu","countryId":"2510769","fcl":"A","population":166,"countryCode":"ES","name":"Oroz-Betelu/Orotz-Betelu","fclName":"country, state, region,...","adminCodes1":{"ISO3166_2":"NC"},"countryName":"Espainia","fcodeName":"third-order administrative division","adminName1":"Nafarroa","lat":"42.90241","fcode":"ADM3"},{"adminCode1":"32","lng":"-1.59792","geonameId":6359745,"toponymName":"Orísoain","countryId":"2510769","fcl":"A","population":89,"countryCode":"ES","name":"Orísoain","fclName":"country, state, region,...","adminCodes1":{"ISO3166_2":"NC"},"countryName":"Espainia","fcodeName":"third-order administrative division","adminName1":"Nafarroa","lat":"42.60133","fcode":"ADM3"},{"adminCode1":"32","lng":"-1.9567","geonameId":6359671,"toponymName":"Uharte-Arakil","countryId":"2510769","fcl":"A","population":827,"countryCode":"ES","name":"Uharte-Arakil","fclName":"country, state, region,...","adminCodes1":{"ISO3166_2":"NC"},"countryName":"Espainia","fcodeName":"third-order administrative division","adminName1":"Nafarroa","lat":"42.92946","fcode":"ADM3"},{"adminCode1":"32","lng":"-2.22834","geonameId":6359621,"toponymName":"Ziordia","countryId":"2510769","fcl":"A","population":394,"countryCode":"ES","name":"Ziordia","fclName":"country, state, region,...","adminCodes1":{"ISO3166_2":"NC"},"countryName":"Espainia","fcodeName":"third-order administrative division","adminName1":"Nafarroa","lat":"42.8703","fcode":"ADM3"},{"adminCode1":"32","lng":"-1.71586","geonameId":6359624,"toponymName":"Cizur","countryId":"2510769","fcl":"A","population":3663,"countryCode":"ES","name":"Zizur","fclName":"country, state, region,...","adminCodes1":{"ISO3166_2":"NC"},"countryName":"Espainia","fcodeName":"third-order administrative division","adminName1":"Nafarroa","lat":"42.76084","fcode":"ADM3"}]}